Latin name,Species3,Family3,Order3,Total.individuals,Female,Male,Unknown,Complete.measures,Beak.Length_Culmen,Beak.Length_Nares,Beak.Width,Beak.Depth,Tarsus.Length,Wing.Length,Kipps.Distance,Secondary1,Hand-Wing.Index,Tail.Length,Mass,Mass.Source,Mass.Refs.Other,Inference,Traits.inferred,Reference.species,Habitat,Habitat.Density,Migration,Trophic.Level,Trophic.Niche,Primary.Lifestyle,Min.Latitude,Max.Latitude,Centroid.Latitude,Centroid.Longitude,Range.Size,Species.Status
Pteruthius_melanotis,Pteruthius melanotis,Timaliidae,Passeriformes,10,2,8,0,4,11.8,5.4,4.0,3.9,19.9,59.3,10.2,49.2,17.2,41.4,13.3,Dunning,,NO,,,Forest,1.0,1.0,Carnivore,Invertivore,Insessorial,3.39,30.31,23.62,97.67847922,841041.72,Extant
Menura_novaehollandiae,Menura novaehollandiae,Menuridae,Passeriformes,10,5,5,0,4,42.2,16.6,7.0,7.6,109.5,280.9,5.7,281.6,2.0,582.7,972.62,Dunning,,NO,,,Forest,1.0,1.0,Carnivore,Invertivore,Terrestrial,-37.85,-26.55,-32.65,150.2951013,324756.71,Extant
Atrichornis_clamosus,Atrichornis clamosus,Atrichornithidae,Passeriformes,3,0,0,3,2,19.8,8.2,3.1,5.0,25.7,74.3,4.4,68.6,6.0,104.3,42.15,Dunning,,NO,,,Shrubland,2.0,1.0,Carnivore,Invertivore,Terrestrial,-35.02,-33.03,-34.31,117.480473,163.91,Extant
Nothoprocta_ornata,Nothoprocta ornata,Tinamidae,Tinamiformes,5,1,3,1,5,30.9,18.1,7.3,7.1,38.3,185.6,48.5,137.1,26.1,66.0,619.27,Dunning,,NO,,,Grassland,2.0,1.0,Herbivore,Omnivore,Terrestrial,-30.01,-7.67,-18.41,-69.18473668,765344.43,Extant
Malurus_elegans,Malurus elegans,Maluridae,Passeriformes,12,6,6,0,4,13.1,6.2,2.9,2.7,22.7,50.0,5.5,43.8,11.1,75.7,9.59,Dunning,,NO,,,Forest,1.0,1.0,Carnivore,Invertivore,Terrestrial,-35.19,-31.05,-33.59,116.6271699,71313.86,Extant
Locustella_ochotensis,Locustella ochotensis,Sylviidae,Passeriformes,5,2,3,0,4,16.2,9.4,3.0,3.4,24.4,69.5,20.4,48.9,29.6,58.2,18.5,Dunning,,NO,,,Shrubland,3.0,3.0,Carnivore,Invertivore,Generalist,41.92,61.38,55.49,146.3116689,837155.24,Extant
Nothoprocta_pentlandii,Nothoprocta pentlandii,Tinamidae,Tinamiformes,9,2,3,4,9,27.9,14.7,5.9,5.9,37.0,148.2,33.5,114.7,22.6,53.4,300.73,Dunning,,NO,,,Shrubland,2.0,1.0,Herbivore,Omnivore,Terrestrial,-36.9,-2.83,-22.0,-69.25999455,612683.69,Extant
Illadopsis_cleaveri,Illadopsis cleaveri,Timaliidae,Passeriformes,78,24,2,52,4,15.8,8.7,3.2,4.3,25.5,72.7,4.2,64.6,6.1,58.0,30.8,Dunning,,NO,,,Forest,1.0,1.0,Carnivore,Invertivore,Terrestrial,-5.8,9.29,3.23,5.774439744,977280.91,Extant
Cettia_vulcania,Cettia vulcania,Sylviidae,Passeriformes,4,2,2,0,4,13.7,7.0,2.7,2.7,23.2,51.4,7.4,44.0,14.3,55.2,8.0,Inferred,,YES,Body Mass,Cettia flavolivacea,Shrubland,1.0,2.0,Carnivore,Invertivore,Generalist,,,,,,Extant
Pycnonotus_atriceps,Pycnonotus atriceps,Pycnonotidae,Passeriformes,9,4,5,0,8,15.7,9.5,4.2,4.6,15.1,77.7,13.1,64.0,17.0,67.0,25.5,Dunning,,NO,,,Forest,1.0,1.0,Herbivore,Frugivore,Insessorial,-8.85,28.88,10.81,103.5644753,2972073.6,Extant
Parus_atricapillus,Parus atricapillus,Paridae,Passeriformes,13,5,7,1,7,10.3,7.2,3.7,4.0,16.8,64.4,12.0,52.5,18.6,61.7,10.8,Dunning,,NO,,,Forest,1.0,1.0,Omnivore,Invertivore,Insessorial,34.2,65.98,50.08,-104.9891099,9078514.18,Extant
Callaeas_cinereus,Callaeas cinereus,Callaeatidae,Passeriformes,4,0,0,4,4,32.5,15.4,9.9,13.2,66.5,158.0,18.0,140.0,11.3,164.5,225.37,Dunning,,NO,,,Forest,1.0,1.0,Herbivore,Omnivore,Insessorial,-40.89,-35.1,-38.06,175.607333,4406.46,Extant
Grus_americana,Grus americana,Gruidae,Gruiformes,4,0,1,3,4,148.8,77.1,13.1,22.0,288.8,605.8,258.8,347.0,42.7,208.8,5825.99,Dunning,,NO,,,Wetland,3.0,3.0,Carnivore,Omnivore,Terrestrial,27.41,60.56,53.37,-107.6649448,6122.49,Extant
Panurus_biarmicus,Panurus biarmicus,Timaliidae,Passeriformes,13,6,7,0,4,9.2,5.8,3.3,3.5,19.5,60.0,13.3,46.8,22.1,82.4,13.82,Dunning,,NO,,,Wetland,3.0,2.0,Omnivore,Invertivore,Insessorial,32.86,65.29,44.98,78.51770491,11689099.28,Extant
Crotophaga_sulcirostris,Crotophaga sulcirostris,Cuculidae,Cuculiformes,15,5,4,6,4,26.9,17.7,9.5,16.5,33.8,129.3,24.8,103.0,19.3,162.7,82.04,Dunning,,NO,,,Human Modified,3.0,1.0,Carnivore,Invertivore,Terrestrial,-23.6,30.19,12.58,-85.96128768,2696933.46,Extant
Sylvia_atricapilla,Sylvia atricapilla,Sylviidae,Passeriformes,21,10,11,0,4,15.2,7.2,3.2,3.4,20.8,75.9,20.5,55.4,27.0,62.2,16.7,Dunning,,NO,,,Woodland,1.0,3.0,Omnivore,Omnivore,Insessorial,14.79,68.26,51.6,26.37421465,8628077.66,Extant
Rhegmatorhina_hoffmannsi,Rhegmatorhina hoffmannsi,Thamnophilidae,Passeriformes,7,3,4,0,4,19.4,12.2,4.7,5.0,28.4,78.9,9.8,68.8,12.2,50.8,31.4,Dunning,,NO,,,Forest,1.0,1.0,Carnivore,Invertivore,Insessorial,-16.08,-3.36,-9.68,-59.73895965,646225.64,Extant
Crypturellus_soui,Crypturellus soui,Tinamidae,Tinamiformes,18,8,7,3,5,24.2,8.0,4.2,3.9,36.4,127.5,32.9,96.4,25.4,47.9,216.16,Dunning,,NO,,,Forest,1.0,1.0,Herbivore,Omnivore,Terrestrial,-22.54,19.13,-4.47,-60.50690479,11151222.76,Extant
Pomatostomus_ruficeps,Pomatostomus ruficeps,Pomatostomidae,Passeriformes,9,5,3,1,4,27.7,17.9,4.1,6.6,28.2,85.9,10.1,75.4,11.7,89.2,57.8,Dunning,,NO,,,Shrubland,2.0,2.0,Carnivore,Invertivore,Generalist,-37.09,-24.69,-30.72,142.8896301,1074854.31,Extant
Pachyramphus_minor,Pachyramphus minor,Cotingidae,Passeriformes,9,4,5,0,6,19.3,13.5,8.4,7.6,20.9,89.2,18.0,71.0,20.3,65.1,36.6,Dunning,,NO,,,Forest,1.0,2.0,Omnivore,Omnivore,Insessorial,-18.32,8.56,-4.7,-62.05816723,6895984.62,Extant
Anseranas_semipalmata,Anseranas semipalmata,Anseranatidae,Anseriformes,7,3,3,1,4,85.6,42.4,22.8,20.4,87.0,405.6,144.0,269.0,34.9,148.1,2393.4,Dunning,,NO,,,Wetland,3.0,2.0,Herbivore,Omnivore,Terrestrial,-38.9,-10.62,-20.53,137.4283157,223353.42,Extant
Sakesphorus_luctuosus,Sakesphorus luctuosus,Thamnophilidae,Passeriformes,9,2,3,4,4,24.1,14.0,6.1,6.9,25.0,79.3,8.5,71.9,10.6,65.4,31.4,Dunning,,NO,,,Forest,1.0,1.0,Carnivore,Invertivore,Insessorial,-15.16,1.2,-6.34,-54.76053426,1618420.86,Extant
Anhinga_rufa,Anhinga rufa,Anhingidae,Suliformes,6,2,2,2,4,86.9,69.7,10.5,14.1,46.2,344.3,156.8,186.2,45.7,242.7,1480.06,Dunning,,NO,,,Wetland,3.0,1.0,Carnivore,Aquatic predator,Aquatic,-34.84,32.07,-2.89,21.5446615,17976599.63,Extant
Dromas_ardeola,Dromas ardeola,Dromadidae,Charadriiformes,6,3,3,0,4,62.7,44.8,9.9,14.9,90.4,208.5,112.0,96.5,53.7,66.7,325.0,Dunning,,NO,,,Coastal,3.0,1.0,Carnivore,Aquatic predator,Terrestrial,11.36,30.79,22.79,49.41638171,318985.68,Extant
Nicator_chloris,Nicator chloris,Pycnonotidae,Passeriformes,15,3,5,7,5,21.5,11.6,4.2,6.4,28.6,100.0,13.3,89.7,12.8,98.2,46.1,Dunning,,NO,,,Forest,1.0,1.0,Carnivore,Invertivore,Insessorial,-10.27,13.93,0.97,14.50364623,3969589.79,Extant
Pachycephala_philippinensis,Pachycephala philippinensis,Pachycephalidae,Passeriformes,11,2,9,0,4,17.2,10.8,4.8,5.2,19.8,81.6,12.4,68.7,15.3,62.0,22.3,Dunning,,NO,,,Forest,1.0,1.0,Carnivore,Invertivore,Insessorial,5.56,19.4,11.46,123.4680701,193262.3,Extant
Mystacornis_crossleyi,Mystacornis crossleyi,Vangidae,Passeriformes,9,2,7,0,4,22.4,13.4,4.2,4.4,25.3,70.2,6.6,63.5,9.3,52.2,24.5,Dunning,,NO,,,Forest,1.0,1.0,Carnivore,Invertivore,Terrestrial,-25.09,-12.83,-18.74,48.4172555,159923.75,Extant
Chloroceryle_aenea,Chloroceryle aenea,Alcedinidae,Coraciiformes,8,3,5,0,5,31.0,24.0,5.0,6.5,7.9,55.9,13.6,42.4,24.2,34.0,13.75,Dunning,,NO,,,Riverine,2.0,1.0,Carnivore,Aquatic predator,Insessorial,-26.19,21.62,-3.66,-63.81874162,9332280.13,Extant
Rissa_tridactyla,Rissa tridactyla,Laridae,Charadriiformes,10,4,5,1,4,44.5,18.8,5.3,10.8,33.9,301.0,179.1,122.9,59.4,116.0,415.99,Dunning,,NO,,,Marine,3.0,2.0,Carnivore,Aquatic predator,Aerial,43.09,81.83,59.56,-52.28149527,2307068.48,Extant
Myiagra_hebetior,Myiagra hebetior,Monarchidae,Passeriformes,10,2,8,0,4,20.5,10.7,6.0,4.2,21.9,79.3,11.3,67.9,14.2,65.1,20.2,Dunning,,NO,,,Forest,1.0,1.0,Carnivore,Invertivore,Insessorial,-6.31,-1.31,-5.1,150.8838206,42727.79,Extant
Upupa_epops,Upupa epops,Upupidae,Bucerotiformes,18,9,9,0,16,56.5,47.1,5.7,6.5,21.2,143.8,29.9,113.9,20.8,100.8,66.93,Dunning,,NO,,,Grassland,3.0,3.0,Carnivore,Invertivore,Terrestrial,-34.84,60.04,28.97,61.73841453,47411719.4,Extant
Picathartes_gymnocephalus,Picathartes gymnocephalus,Picathartidae,Passeriformes,6,2,0,4,4,34.0,18.2,6.2,10.4,63.1,162.2,7.2,152.3,4.5,180.5,196.0,Dunning,,NO,,,Forest,1.0,1.0,Carnivore,Invertivore,Terrestrial,4.49,9.98,6.81,-6.81818555,388878.28,Extant
Scopus_umbretta,Scopus umbretta,Scopidae,Pelecaniformes,8,5,3,0,4,84.5,62.8,13.4,22.2,65.6,293.2,108.0,191.0,36.1,154.1,472.0,Dunning,,NO,,,Wetland,3.0,2.0,Carnivore,Omnivore,Terrestrial,-34.84,20.89,-2.88,23.0360757,19881333.45,Extant
Sagittarius_serpentarius,Sagittarius serpentarius,Accipitridae,Accipitriformes,8,4,4,0,4,59.4,40.2,19.0,24.1,269.9,615.5,250.2,365.2,40.6,551.8,4017.0,Dunning,,NO,,,Grassland,3.0,2.0,Carnivore,Vertivore,Terrestrial,-34.84,17.86,-3.98,23.60981129,14023594.92,Extant
Melanocharis_versteri,Melanocharis versteri,Melanocharitidae,Passeriformes,5,2,3,0,4,12.4,6.0,3.6,4.0,21.9,64.0,9.8,55.0,15.1,72.2,14.67,Dunning,,NO,,,Forest,1.0,1.0,Omnivore,Frugivore,Insessorial,-10.17,-0.51,-5.04,141.3716215,148463.41,Extant
Galbula_dea,Galbula dea,Galbulidae,Piciformes,5,1,3,1,4,57.3,47.1,6.0,8.2,12.6,91.2,23.8,66.5,26.2,156.6,27.4,Dunning,,NO,,,Forest,1.0,1.0,Carnivore,Invertivore,Insessorial,-15.04,8.51,-3.81,-61.90936961,5923896.48,Extant
Pomatorhinus_ruficollis,Pomatorhinus ruficollis,Timaliidae,Passeriformes,5,2,3,0,3,22.5,15.6,3.3,5.4,28.0,78.8,7.7,69.8,10.0,85.4,31.61,Dunning,,NO,,,Forest,2.0,1.0,Carnivore,Invertivore,Generalist,16.19,35.12,26.98,106.0218814,2706746.89,Extant
Zosterops_hypoxanthus,Zosterops hypoxanthus,Zosteropidae,Passeriformes,5,2,3,0,4,13.2,7.3,3.1,3.9,16.1,56.5,10.1,46.8,17.7,39.6,12.5,Dunning,,NO,,,Forest,2.0,1.0,Herbivore,Omnivore,Insessorial,-6.03,-1.96,-4.25,150.4679618,10062.12,Extant
Heliornis_fulica,Heliornis fulica,Heliornithidae,Gruiformes,8,3,5,0,4,32.4,16.3,4.4,6.9,21.6,141.5,51.3,90.4,36.2,81.8,132.0,Dunning,,NO,,,Wetland,2.0,1.0,Carnivore,Aquatic predator,Aquatic,-27.05,23.84,-4.37,-63.44119455,8812012.44,Extant
Bucco_capensis,Bucco capensis,Bucconidae,Piciformes,6,4,2,0,4,34.5,22.0,11.3,12.8,17.4,86.7,17.2,68.5,19.9,57.0,54.0,Dunning,,NO,,,Forest,1.0,1.0,Carnivore,Invertivore,Insessorial,-13.87,8.27,-2.43,-63.49651513,5454915.04,Extant
Dendroica_kirtlandii,Dendroica kirtlandii,Parulidae,Passeriformes,4,2,2,0,3,13.3,7.9,3.8,3.9,20.5,70.0,14.3,55.7,20.5,59.5,13.94,Dunning,,NO,,,Forest,2.0,3.0,Carnivore,Invertivore,Insessorial,43.4,46.95,45.37,-87.60086837,37706.6,Extant
Thalassarche_chlororhynchos,Thalassarche chlororhynchos,Diomedeidae,Procellariiformes,4,1,3,0,4,113.0,83.8,19.1,30.4,71.0,465.0,313.8,151.2,67.5,186.0,2128.84,Dunning,,NO,,,Marine,3.0,2.0,Carnivore,Aquatic predator,Aquatic,-51.51,-3.66,-34.74,-13.84759587,21606227.43,Extant
Nectarinia_aspasia,Nectarinia aspasia,Nectariniidae,Passeriformes,78,45,32,1,5,20.2,15.3,3.1,2.4,14.0,55.3,9.5,44.1,17.6,35.1,8.0,Updated_literature,BoW,NO,,,Forest,2.0,1.0,Omnivore,Omnivore,Insessorial,-11.66,4.55,-4.7,137.7560902,916101.7,Extant
Halcyon_senegalensis,Halcyon senegalensis,Alcedinidae,Coraciiformes,5,2,3,0,4,43.8,34.4,11.6,12.1,12.8,99.4,20.9,78.8,21.0,70.8,73.44,Dunning,,NO,,,Woodland,2.0,1.0,Carnivore,Invertivore,Insessorial,-27.43,16.45,-0.14,19.75053465,14752529.26,Extant
Nyctiprogne_leucopyga,Nyctiprogne leucopyga,Caprimulgidae,Caprimulgiformes,4,1,2,1,4,10.7,4.3,2.1,2.3,12.5,135.8,67.5,68.3,49.6,86.2,27.3,Dunning,,NO,,,Forest,1.0,1.0,Carnivore,Invertivore,Aerial,-20.73,10.0,-4.54,-60.51255265,5244008.15,Extant
Chauna_torquata,Chauna torquata,Anhimidae,Anseriformes,5,2,3,0,4,47.3,21.9,13.6,15.3,123.5,517.0,184.0,337.8,35.3,204.4,4400.0,Dunning,,NO,,,Wetland,3.0,1.0,Herbivore,Herbivore aquatic,Terrestrial,-39.01,-10.43,-24.91,-59.41294646,3828524.39,Extant
Mionectes_macconnelli,Mionectes macconnelli,Tyrannidae,Passeriformes,12,5,5,2,4,13.7,8.0,4.1,3.4,16.0,60.7,10.2,50.5,16.7,49.8,13.5,Dunning,,NO,,,Forest,1.0,1.0,Carnivore,Invertivore,Insessorial,-17.4,8.26,-1.7,-58.63142577,2920810.8,Extant
Cardinalis_cardinalis,Cardinalis cardinalis,Cardinalidae,Passeriformes,64,24,40,0,8,17.6,14.7,9.3,12.3,24.5,93.5,14.2,77.7,15.5,101.8,42.64,Dunning,,NO,,,Shrubland,2.0,1.0,Herbivore,Omnivore,Insessorial,15.65,47.34,34.85,-92.40576548,5834572.06,Extant
Aegithalos_caudatus,Aegithalos caudatus,Aegithalidae,Passeriformes,21,10,11,0,8,7.6,4.5,2.6,3.3,15.8,61.4,13.3,48.2,21.6,79.8,8.6,Dunning,,NO,,,Forest,2.0,1.0,Carnivore,Invertivore,Insessorial,23.12,68.3,51.23,74.92598155,20041677.81,Extant
Crypturellus_undulatus,Crypturellus undulatus,Tinamidae,Tinamiformes,7,1,6,0,4,34.0,12.4,6.0,5.8,48.0,172.5,35.0,137.8,20.3,56.6,564.42,Dunning,,NO,,,Forest,1.0,1.0,Herbivore,Omnivore,Terrestrial,-27.8,8.4,-8.43,-59.5580665,8533511.59,Extant
Hypocryptadius_cinnamomeus,Hypocryptadius cinnamomeus,Zosteropidae,Passeriformes,5,2,3,0,4,18.3,10.3,4.2,5.5,21.0,91.1,19.7,69.9,22.0,63.2,30.0,Dunning,,NO,,,Forest,1.0,1.0,Carnivore,Invertivore,Insessorial,5.86,9.34,7.6,125.0489584,6672.79,Extant
Rhinopomastus_cyanomelas,Rhinopomastus cyanomelas,Phoeniculidae,Bucerotiformes,8,3,4,1,4,41.8,34.6,4.3,5.5,17.9,108.4,21.2,84.5,20.1,146.6,27.11,Dunning,,NO,,,Grassland,2.0,1.0,Carnivore,Invertivore,Insessorial,-31.85,4.2,-15.51,28.09027242,6396418.32,Extant
Oceanodroma_tethys,Oceanodroma tethys,Hydrobatidae,Procellariiformes,5,2,3,0,4,13.3,8.3,2.0,3.5,21.8,129.8,78.5,53.8,59.4,58.8,22.6,Dunning,,NO,,,Marine,3.0,3.0,Carnivore,Aquatic predator,Aerial,-27.88,29.03,-1.79,-91.58681488,11745531.83,Extant
Prunella_fulvescens,Prunella fulvescens,Prunellidae,Passeriformes,5,2,3,0,4,14.3,7.9,3.9,3.9,20.2,75.1,15.5,60.1,20.5,67.2,18.9,Dunning,,NO,,,Shrubland,3.0,2.0,Omnivore,Invertivore,Terrestrial,27.25,52.08,41.02,90.60841663,3210424.28,Extant
Eubucco_bourcierii,Eubucco bourcierii,Ramphastidae,Piciformes,9,4,5,0,4,20.6,14.8,5.8,8.6,20.9,72.0,10.6,60.9,14.8,52.4,37.0,Dunning,,NO,,,Forest,1.0,1.0,Herbivore,Frugivore,Insessorial,-5.24,10.49,3.22,-77.25524565,234502.7,Extant
Rhodinocichla_rosea,Rhodinocichla rosea,Thraupidae,Passeriformes,6,2,4,0,4,23.1,13.7,4.4,5.8,26.2,81.2,7.2,71.5,9.1,78.8,48.0,Dunning,,NO,,,Shrubland,1.0,1.0,Herbivore,Omnivore,Insessorial,4.27,23.43,13.47,-85.96330836,163331.81,Extant
Urocynchramus_pylzowi,Urocynchramus pylzowi,Urocynchramidae,Passeriformes,4,1,3,0,4,12.7,7.3,3.9,4.6,22.0,73.5,10.8,62.6,14.8,78.2,28.62,EltonTraits_Model,,NO,,,Shrubland,2.0,1.0,Herbivore,Granivore,Generalist,28.83,38.92,33.82,100.0822446,627499.68,Extant
Cinclus_mexicanus,Cinclus mexicanus,Cinclidae,Passeriformes,5,2,3,0,4,21.6,11.7,3.4,4.8,29.8,89.1,23.6,65.3,26.5,51.8,56.68,Dunning,,NO,,,Riverine,3.0,1.0,Carnivore,Aquatic predator,Generalist,8.36,69.6,52.35,-128.7471879,4910744.04,Extant
Burhinus_bistriatus,Burhinus bistriatus,Burhinidae,Charadriiformes,4,2,2,0,4,49.8,25.4,10.4,12.2,110.2,241.8,105.7,136.1,43.6,119.5,787.0,Dunning,,NO,,,Grassland,3.0,1.0,Carnivore,Invertivore,Terrestrial,-0.1,19.93,9.09,-70.69772641,787421.54,Extant
Chunga_burmeisteri,Chunga burmeisteri,Cariamidae,Cariamiformes,4,1,0,3,3,59.2,29.4,14.1,16.1,144.0,300.3,32.1,268.2,10.7,305.7,1298.0,Dunning,,NO,,,Woodland,2.0,1.0,Carnivore,Invertivore,Terrestrial,-35.36,-18.4,-25.38,-62.3776834,736438.81,Extant
Daphoenositta_chrysoptera,Daphoenositta chrysoptera,Neosittidae,Passeriformes,22,9,13,0,8,14.4,9.4,2.8,3.5,16.0,79.1,23.0,55.1,29.4,37.5,11.7,Dunning,,NO,,,Forest,2.0,1.0,Carnivore,Invertivore,Insessorial,-39.24,-0.52,-25.74,136.4915404,4895533.35,Extant
Leucopsar_rothschildi,Leucopsar rothschildi,Sturnidae,Passeriformes,4,2,2,0,4,31.2,18.0,6.5,8.9,35.1,130.8,26.1,104.7,19.9,79.0,91.3,Dunning,,NO,,,Woodland,2.0,1.0,Omnivore,Omnivore,Insessorial,-8.14,-8.09,-8.12,114.4762973,37.61,Extant
Thryothorus_ludovicianus,Thryothorus ludovicianus,Troglodytidae,Passeriformes,13,3,6,4,10,16.9,11.1,3.2,3.9,21.4,59.4,6.8,52.6,11.4,50.7,18.96,Dunning,,NO,,,Woodland,2.0,1.0,Carnivore,Invertivore,Insessorial,12.63,45.64,34.43,-87.99292923,3217727.29,Extant
Paradoxornis_webbianus,Paradoxornis webbianus,Timaliidae,Passeriformes,5,2,2,1,4,9.2,5.4,3.6,5.8,19.5,50.4,7.0,43.3,13.9,59.4,10.9,Dunning,,NO,,,Shrubland,2.0,1.0,Herbivore,Omnivore,Insessorial,21.78,46.71,33.65,114.5697774,4347110.32,Extant
Jacana_jacana,Jacana jacana,Jacanidae,Charadriiformes,13,6,6,1,7,34.0,18.4,4.1,6.4,53.9,129.0,25.8,104.1,20.0,43.1,106.24,Dunning,,NO,,,Wetland,3.0,1.0,Omnivore,Omnivore,Terrestrial,-37.84,12.49,-10.23,-58.00033567,13881637.25,Extant
Rostratula_semicollaris,Rostratula semicollaris,Rostratulidae,Charadriiformes,8,4,4,0,4,42.7,34.1,3.6,5.5,33.5,102.9,31.8,69.7,31.4,46.4,76.6,Dunning,,NO,,,Wetland,1.0,2.0,Omnivore,Aquatic predator,Terrestrial,-44.05,-21.58,-32.39,-61.65426037,2533948.28,Extant
Tricholaema_leucomelas,Tricholaema leucomelas,Ramphastidae,Piciformes,4,2,2,0,4,19.0,13.6,8.7,10.5,20.6,79.0,12.8,66.2,16.2,44.0,32.2,Dunning,,NO,,,Shrubland,2.0,1.0,Herbivore,Omnivore,Insessorial,-34.84,-9.86,-24.17,22.72385103,3123368.53,Extant
Climacteris_rufus,Climacteris rufus,Climacteridae,Passeriformes,10,5,5,0,4,19.7,10.4,3.6,3.6,23.2,87.3,24.6,64.4,27.5,61.6,32.64,Dunning,,NO,,,Woodland,2.0,1.0,Carnivore,Invertivore,Insessorial,-35.19,-28.82,-31.94,122.8538672,452307.17,Extant
Erpornis_zantholeuca,Erpornis zantholeuca,Timaliidae,Passeriformes,11,2,9,0,4,15.4,8.4,3.9,4.2,16.7,66.4,11.3,54.8,17.1,44.0,11.8,Dunning,,NO,,,Forest,1.0,1.0,Omnivore,Invertivore,Insessorial,-4.19,29.88,17.04,104.8882377,3629429.65,Extant
Rhynochetos_jubatus,Rhynochetos jubatus,Rhynochetidae,Eurypygiformes,4,1,2,1,2,67.2,42.2,9.8,17.0,100.0,264.3,37.1,227.2,14.0,183.5,859.99,Dunning,,NO,,,Forest,1.0,1.0,Carnivore,Invertivore,Terrestrial,-22.15,-20.82,-21.58,165.8959756,1341.75,Extant
Regulus_satrapa,Regulus satrapa,Reguliidae,Passeriformes,5,2,3,0,4,9.0,5.4,2.1,2.5,16.2,57.2,13.4,43.4,23.6,42.8,6.19,Dunning,,NO,,,Forest,1.0,3.0,Carnivore,Invertivore,Insessorial,14.65,62.43,49.81,-105.1575607,6348089.15,Extant
Larus_argentatus,Larus argentatus,Laridae,Charadriiformes,16,5,10,1,10,70.5,25.3,8.8,18.5,64.9,429.0,236.3,193.8,54.9,168.5,1090.99,Dunning,,NO,,,Coastal,3.0,2.0,Carnivore,Aquatic predator,Generalist,34.39,77.08,60.56,-9.686839154,13888864.47,Extant
Arenaria_interpres,Arenaria interpres,Scolopacidae,Charadriiformes,10,5,5,0,4,25.4,15.7,3.9,5.5,25.5,148.8,83.4,66.4,55.6,61.0,135.98,Dunning,,NO,,,Coastal,3.0,3.0,Carnivore,Aquatic predator,Terrestrial,55.99,83.11,72.47,-51.70528284,2619753.6,Extant
Loxia_leucoptera,Loxia leucoptera,Fringillidae,Passeriformes,10,6,4,0,4,19.1,13.4,4.5,8.6,15.6,88.7,31.7,57.1,35.7,58.8,28.69,Dunning,,NO,,,Forest,1.0,3.0,Herbivore,Omnivore,Insessorial,35.76,69.45,57.95,-3.84663526,16098090.24,Extant
Vireo_altiloquus,Vireo altiloquus,Vireonidae,Passeriformes,22,5,14,3,4,20.6,12.0,4.5,4.7,19.2,80.4,20.1,60.2,25.0,54.2,18.97,Dunning,,NO,,,Woodland,2.0,1.0,Omnivore,Invertivore,Insessorial,10.86,29.37,20.76,-75.54652453,243716.04,Extant
Pterocles_burchelli,Pterocles burchelli,Pteroclididae,Pteroclidiformes,5,2,3,0,4,16.2,6.8,4.2,4.8,26.6,159.2,83.2,76.0,52.2,68.0,180.67,Dunning,,NO,,,Grassland,3.0,1.0,Herbivore,Granivore,Terrestrial,-28.86,-17.18,-22.19,21.75028667,1218509.01,Extant
Phylloscopus_sibilatrix,Phylloscopus sibilatrix,Sylviidae,Passeriformes,18,8,10,0,4,13.2,6.7,2.8,2.8,18.0,75.8,23.3,52.3,30.9,50.7,9.2,Dunning,,NO,,,Forest,1.0,3.0,Carnivore,Invertivore,Insessorial,38.84,69.08,54.15,28.42973258,6359810.96,Extant
Platysteira_castanea,Platysteira castanea,Platysteiridae,Passeriformes,34,10,20,4,11,16.3,8.7,5.5,4.1,16.2,60.1,6.3,53.9,10.4,26.1,14.09,Dunning,,NO,,,Forest,1.0,1.0,Carnivore,Invertivore,Insessorial,-10.97,9.84,-0.19,16.70198323,4100583.96,Extant
Nesospiza_acunhae,Nesospiza acunhae,Emberizidae,Passeriformes,4,0,4,0,4,15.4,10.3,5.3,7.8,24.7,83.0,16.6,66.4,20.0,69.5,28.54,Dunning,,NO,,,Shrubland,2.0,1.0,Herbivore,Omnivore,Generalist,-37.33,-37.28,-37.3,-12.68218268,16.43,Extant
Smithornis_capensis,Smithornis capensis,Eurylaimidae,Passeriformes,14,5,8,1,9,16.2,10.4,9.8,5.8,16.1,70.1,11.8,57.7,16.9,51.2,23.2,Dunning,,NO,,,Forest,2.0,1.0,Carnivore,Invertivore,Insessorial,-30.81,11.48,-8.09,27.06045309,3751914.0,Extant
Oceanites_oceanicus,Oceanites oceanicus,Hydrobatidae,Procellariiformes,5,2,3,0,4,16.3,7.1,2.9,3.8,34.9,147.2,86.6,61.2,58.6,66.0,30.41,Dunning,,NO,,,Marine,3.0,3.0,Carnivore,Aquatic predator,Aerial,-73.66,-48.45,-54.16,-20.87579418,28528.95,Extant
Chloropsis_cyanopogon,Chloropsis cyanopogon,Chloropseidae,Passeriformes,8,3,3,2,4,18.7,12.8,4.2,5.0,18.9,81.9,14.9,68.1,17.8,63.0,22.0,Dunning,,NO,,,Forest,1.0,1.0,Omnivore,Omnivore,Insessorial,-5.95,9.85,1.18,108.4286138,1210976.46,Extant
Chloropsis_hardwickii,Chloropsis hardwickii,Chloropseidae,Passeriformes,5,2,3,0,4,24.7,14.9,4.6,5.4,17.6,93.6,18.1,74.7,19.5,71.4,32.29,Dunning,,NO,,,Shrubland,1.0,3.0,Omnivore,Omnivore,Insessorial,3.38,31.63,23.39,101.8222026,1584465.88,Extant
Dryoscopus_gambensis,Dryoscopus gambensis,Malaconotidae,Passeriformes,11,2,9,0,4,23.5,12.9,6.6,7.2,25.1,90.5,13.5,76.9,14.9,75.3,31.9,Dunning,,NO,,,Woodland,2.0,1.0,Carnivore,Invertivore,Insessorial,-7.43,17.21,7.87,14.46510669,5608614.97,Extant
Drymodes_brunneopygia,Drymodes brunneopygia,Petroicidae,Passeriformes,7,3,3,1,4,16.5,8.8,3.4,3.9,35.5,91.9,12.3,78.0,13.6,100.7,32.95,Dunning,,NO,,,Shrubland,2.0,1.0,Carnivore,Invertivore,Generalist,-37.35,-25.52,-32.61,130.324147,916861.69,Extant
Larus_maculipennis,Larus maculipennis,Laridae,Charadriiformes,5,2,3,0,4,41.4,16.6,4.7,8.9,43.8,291.2,159.0,129.2,55.1,108.2,339.0,Dunning,,NO,,,Wetland,3.0,1.0,Carnivore,Omnivore,Generalist,-55.98,-28.77,-40.29,-66.11448112,2149631.88,Extant
Chionis_minor,Chionis minor,Chionidae,Charadriiformes,5,3,2,0,4,33.5,22.6,8.7,14.6,45.4,227.0,81.1,145.2,35.9,105.8,493.96,Dunning,,NO,,,Marine,3.0,2.0,Omnivore,Omnivore,Terrestrial,-53.19,-45.97,-49.28,67.76398714,8219.09,Extant
Chaetops_frenatus,Chaetops frenatus,Turdidae,Passeriformes,3,0,0,3,3,24.2,13.0,3.7,4.9,34.4,87.3,10.3,77.0,11.8,91.7,54.99,Dunning,,NO,,,Rock,3.0,1.0,Carnivore,Invertivore,Terrestrial,-34.84,-31.79,-33.59,20.91420292,66553.02,Extant
Piprites_chloris,Piprites chloris,Pipridae,Passeriformes,6,0,4,2,4,11.7,7.2,4.2,4.7,16.8,66.2,16.7,49.3,25.3,50.3,16.0,Dunning,,NO,,,Forest,1.0,1.0,Carnivore,Invertivore,Insessorial,-27.82,11.25,-4.83,-62.48224756,7073219.6,Extant
Calyptomena_viridis,Calyptomena viridis,Eurylaimidae,Passeriformes,12,3,5,4,5,16.6,8.7,6.0,6.0,21.4,97.8,16.5,82.1,16.7,51.6,58.5,Dunning,,NO,,,Forest,1.0,1.0,Herbivore,Frugivore,Insessorial,-5.95,16.15,1.69,107.7684547,1457426.48,Extant
Glaucidium_brasilianum,Glaucidium brasilianum,Strigidae,Strigiformes,15,5,7,3,8,14.9,10.0,7.1,10.6,18.0,94.1,16.8,77.3,17.9,63.4,63.3,Updated_literature,BoW,NO,,,Shrubland,2.0,1.0,Carnivore,Invertivore,Insessorial,-34.98,33.43,-7.18,-61.15420895,14547708.74,Extant
Catharus_fuscescens,Catharus fuscescens,Turdidae,Passeriformes,13,6,6,1,8,17.6,10.0,4.4,4.2,29.2,97.0,27.7,69.4,28.5,69.3,31.9,Dunning,,NO,,,Forest,1.0,3.0,Carnivore,Invertivore,Terrestrial,34.7,55.97,47.14,-95.62884468,3681872.46,Extant
Furnarius_figulus,Furnarius figulus,Furnariidae,Passeriformes,11,1,7,3,2,18.6,13.9,3.7,4.4,25.6,83.2,14.1,69.1,17.4,58.0,28.0,Dunning,,NO,,,Forest,1.0,1.0,Carnivore,Invertivore,Terrestrial,-23.71,-1.13,-10.71,-44.01301575,1971356.28,Extant
Rhagologus_leucostigma,Rhagologus leucostigma,Pachycephalidae,Passeriformes,4,0,4,0,4,17.2,9.6,4.2,5.5,20.0,87.8,19.5,68.2,22.2,64.5,26.8,Dunning,,NO,,,Forest,1.0,1.0,Herbivore,Frugivore,Insessorial,-10.26,-0.48,-5.04,141.212906,150755.69,Extant
Penelope_pileata,Penelope pileata,Cracidae,Galliformes,7,1,4,2,4,40.7,17.5,9.6,11.8,85.5,322.0,31.0,290.6,9.6,358.3,1249.79,Dunning,,NO,,,Forest,1.0,1.0,Herbivore,Frugivore,Insessorial,-10.47,-1.2,-5.26,-54.52633241,1046616.16,Extant
Toxostoma_redivivum,Toxostoma redivivum,Mimidae,Passeriformes,5,2,2,1,4,40.2,30.5,6.5,6.9,36.4,102.4,9.8,92.4,9.5,133.0,84.4,Dunning,,NO,,,Shrubland,2.0,1.0,Omnivore,Invertivore,Generalist,29.42,42.0,36.46,-120.0943869,167320.21,Extant
Oreocharis_arfaki,Oreocharis arfaki,Melanocharitidae,Passeriformes,4,2,2,0,4,11.7,6.2,3.3,3.8,18.4,70.0,13.8,56.2,19.6,46.9,19.7,Dunning,,NO,,,Forest,1.0,1.0,Herbivore,Frugivore,Insessorial,-9.91,-0.43,-4.76,140.6611267,62340.26,Extant
Alca_torda,Alca torda,Alcidae,Charadriiformes,6,2,2,2,4,42.8,21.1,9.2,23.1,32.4,209.3,116.5,88.5,56.8,94.7,725.99,Dunning,,NO,,,Marine,3.0,3.0,Carnivore,Aquatic predator,Aquatic,43.1,76.41,61.38,-19.92989098,1228730.51,Extant
Himantopus_himantopus,Himantopus himantopus,Recurvirostridae,Charadriiformes,5,2,3,0,4,64.7,47.1,4.3,4.6,115.8,225.6,115.5,105.2,52.2,78.6,176.82,Dunning,,NO,,,Wetland,3.0,2.0,Carnivore,Aquatic predator,Terrestrial,-34.84,59.08,21.1,29.83485348,30584240.92,Extant
Sylvietta_virens,Sylvietta virens,Sylviidae,Passeriformes,8,2,3,3,6,11.6,7.1,2.6,2.6,16.3,46.4,3.7,43.0,8.0,16.1,8.4,Dunning,,NO,,,Forest,2.0,1.0,Carnivore,Invertivore,Insessorial,-13.75,14.03,0.77,14.90930551,3738336.18,Extant
Ceuthmochares_aereus,Ceuthmochares aereus,Cuculidae,Cuculiformes,10,5,5,0,8,27.7,19.4,9.8,10.5,28.2,119.0,17.4,102.6,14.5,188.9,65.8,Dunning,,NO,,,Forest,1.0,1.0,Carnivore,Invertivore,Insessorial,-34.05,13.49,-3.43,21.93445558,5165917.5,Extant
Orthonyx_spaldingii,Orthonyx spaldingii,Orthonychidae,Passeriformes,9,5,4,0,4,22.3,11.6,5.0,6.6,42.0,122.3,13.4,107.0,11.2,103.3,149.91,Dunning,,NO,,,Forest,1.0,1.0,Carnivore,Invertivore,Terrestrial,-19.63,-15.09,-17.67,145.714945,23436.79,Extant
Promerops_cafer,Promerops cafer,Promeropidae,Passeriformes,5,1,1,3,4,36.8,22.6,3.7,3.7,23.5,93.6,19.4,75.3,20.5,284.0,34.74,Dunning,,NO,,,Shrubland,2.0,2.0,Omnivore,Nectarivore,Insessorial,-34.84,-31.03,-33.39,21.38221847,114533.35,Extant
Amazona_guildingii,Amazona guildingii,Psittacidae,Psittaciformes,4,2,2,0,4,41.1,33.5,22.2,34.2,27.7,262.5,82.5,180.0,31.4,153.2,646.0,Dunning,,NO,,,Forest,1.0,1.0,Herbivore,Omnivore,Insessorial,13.21,13.3,13.25,-61.19704276,43.1,Extant
Caloenas_nicobarica,Caloenas nicobarica,Columbidae,Columbiformes,5,2,3,0,3,30.7,16.4,5.4,7.7,43.7,259.0,85.5,174.8,32.8,98.8,537.86,Dunning,,NO,,,Forest,1.0,2.0,Herbivore,Omnivore,Terrestrial,-11.85,19.58,-0.34,127.4672836,475640.94,Extant
Mesembrinibis_cayennensis,Mesembrinibis cayennensis,Threskiornithidae,Pelecaniformes,9,4,3,2,4,116.6,92.5,11.8,16.3,60.3,296.1,76.6,229.5,25.0,153.3,756.0,Dunning,,NO,,,Forest,2.0,1.0,Carnivore,Aquatic predator,Terrestrial,-29.1,15.41,-7.9,-59.10523233,10576805.93,Extant
Ramphastos_sulfuratus,Ramphastos sulfuratus,Ramphastidae,Piciformes,19,8,7,4,8,129.2,132.3,33.7,45.8,48.7,200.4,29.6,170.3,14.8,163.1,409.69,Dunning,,NO,,,Forest,1.0,1.0,Omnivore,Frugivore,Insessorial,6.94,21.79,14.77,-86.16740974,679911.57,Extant
Cisticola_juncidis,Cisticola juncidis,Cisticolidae,Passeriformes,21,9,12,0,4,12.1,6.8,2.3,2.6,17.7,48.9,6.7,42.8,13.5,40.3,6.81,Dunning,,NO,,,Grassland,3.0,3.0,Carnivore,Invertivore,Generalist,-34.84,51.09,10.73,63.10920419,18929166.75,Extant
Geococcyx_californianus,Geococcyx californianus,Cuculidae,Cuculiformes,5,3,2,0,4,57.8,35.4,10.1,12.5,59.5,181.0,12.0,172.0,6.5,287.4,376.0,Dunning,,NO,,,Shrubland,2.0,1.0,Carnivore,Invertivore,Terrestrial,18.36,40.65,30.77,-104.3620211,3008009.53,Extant
Sclerurus_mexicanus,Sclerurus mexicanus,Furnariidae,Passeriformes,16,3,13,0,4,24.0,18.1,3.6,4.2,21.9,79.1,10.3,68.8,13.0,57.2,25.1,Dunning,,NO,,,Forest,1.0,1.0,Carnivore,Invertivore,Terrestrial,-23.97,21.21,-3.51,-62.38906005,6362030.4,Extant
Hylia_prasina,Hylia prasina,Sylviidae,Passeriformes,75,13,12,50,29,13.0,8.3,3.4,3.4,20.1,61.5,8.4,54.7,13.4,42.9,13.06,Dunning,,NO,,,Forest,1.0,1.0,Carnivore,Invertivore,Insessorial,-12.55,13.31,1.83,13.3531642,4144582.44,Extant
Campylorhamphus_procurvoides,Campylorhamphus procurvoides,Dendrocolaptidae,Passeriformes,12,2,9,1,4,55.3,50.1,4.0,5.3,19.4,94.2,17.3,76.3,18.5,86.4,33.5,Dunning,,NO,,,Forest,1.0,1.0,Carnivore,Invertivore,Insessorial,-11.97,8.66,-2.82,-61.35370225,3820412.0,Extant
Porzana_atra,Porzana atra,Rallidae,Gruiformes,3,2,1,0,3,22.0,11.4,2.8,5.4,30.4,80.0,19.7,60.3,24.5,39.0,77.4,Dunning,,NO,,,Forest,1.0,1.0,Carnivore,Invertivore,Terrestrial,-24.41,-24.32,-24.36,-128.3154918,41.11,Extant
Struthidea_cinerea,Struthidea cinerea,Corcoracidae,Passeriformes,8,3,5,0,4,25.1,13.3,7.7,11.4,39.0,146.6,24.3,124.7,16.3,153.5,132.0,Dunning,,NO,,,Shrubland,2.0,1.0,Omnivore,Omnivore,Terrestrial,-37.0,-13.74,-25.83,144.5099135,2500913.56,Extant
Gymnorhina_tibicen,Gymnorhina tibicen,Cracticidae,Passeriformes,30,9,20,1,9,54.7,35.8,11.9,15.8,56.2,256.6,108.3,157.9,40.7,137.2,284.87,Dunning,,NO,,,Woodland,2.0,1.0,Carnivore,Invertivore,Terrestrial,-43.55,-8.51,-26.45,135.3787949,6726971.95,Extant
Rhinoptilus_africanus,Rhinoptilus africanus,Glareolidae,Charadriiformes,5,2,3,0,4,16.2,8.9,3.1,3.8,52.9,147.8,64.2,82.8,43.7,64.2,87.5,Dunning,,NO,,,Desert,3.0,1.0,Carnivore,Invertivore,Terrestrial,-34.84,13.15,-16.64,27.43424688,2999057.71,Extant
Neodrepanis_coruscans,Neodrepanis coruscans,Philepittidae,Passeriformes,9,3,4,2,4,26.0,21.3,3.4,3.6,14.7,46.6,8.5,37.1,19.5,22.6,6.5,Dunning,,NO,,,Forest,1.0,1.0,Herbivore,Nectarivore,Insessorial,-25.02,-13.32,-17.53,48.74481417,55129.61,Extant
Leiothrix_lutea,Leiothrix lutea,Timaliidae,Passeriformes,5,2,3,0,4,13.7,7.1,3.5,4.6,23.7,68.2,8.6,58.9,12.8,59.2,21.39,Dunning,,NO,,,Shrubland,1.0,1.0,Carnivore,Invertivore,Insessorial,20.22,38.08,28.75,107.7961362,2885282.76,Extant
Oenanthe_oenanthe,Oenanthe oenanthe,Muscicapidae,Passeriformes,29,13,16,0,4,17.9,9.9,3.7,3.7,27.3,95.1,30.5,64.6,32.1,56.7,25.39,Dunning,,NO,,,Grassland,3.0,3.0,Carnivore,Invertivore,Insessorial,28.01,81.4,56.43,53.02979276,29332212.99,Extant
Aegotheles_bennettii,Aegotheles bennettii,Aegothelidae,Apodiformes,7,4,3,0,7,16.5,5.9,4.8,4.0,19.8,127.5,39.6,87.8,31.1,114.9,60.0,Dunning,,NO,,,Forest,1.0,1.0,Carnivore,Invertivore,Insessorial,-10.73,-0.79,-5.63,143.9752959,199259.89,Extant
Eupodotis_ruficrista,Eupodotis ruficrista,Otididae,Otidiformes,5,2,3,0,4,37.4,22.0,8.8,8.3,84.5,261.2,96.5,161.2,37.5,143.0,712.1,Dunning,,NO,,,Shrubland,3.0,1.0,Omnivore,Omnivore,Terrestrial,-28.6,-11.59,-20.84,23.24154624,2013859.39,Extant
Hippolais_icterina,Hippolais icterina,Sylviidae,Passeriformes,22,6,16,0,4,17.5,9.1,3.8,3.4,20.6,77.9,24.0,53.8,30.8,54.6,13.2,Dunning,,NO,,,Woodland,1.0,3.0,Carnivore,Invertivore,Insessorial,35.77,68.41,54.61,35.37015285,6330920.54,Extant
Anhinga_anhinga,Anhinga anhinga,Anhingidae,Suliformes,9,6,3,0,4,85.6,78.8,11.1,14.7,39.0,339.6,66.6,273.0,19.6,267.2,1235.0,Dunning,,NO,,,Wetland,3.0,1.0,Carnivore,Aquatic predator,Aquatic,-33.76,34.87,-5.08,-62.2442446,14921101.49,Extant
Semnornis_frantzii,Semnornis frantzii,Ramphastidae,Piciformes,5,2,3,0,4,19.0,12.6,7.8,10.1,24.6,88.8,12.2,76.8,13.7,67.7,57.3,Dunning,,NO,,,Forest,1.0,1.0,Herbivore,Frugivore,Insessorial,8.47,10.5,9.52,-83.25772204,15874.29,Extant
Psilopogon_pyrolophus,Psilopogon pyrolophus,Ramphastidae,Piciformes,5,2,3,0,4,32.8,22.8,11.2,15.5,30.5,123.4,19.0,104.8,15.4,108.6,129.0,Dunning,,NO,,,Forest,1.0,1.0,Herbivore,Frugivore,Insessorial,-5.95,6.19,0.7,101.3304483,474947.38,Extant
Machaerirhynchus_nigripectus,Machaerirhynchus nigripectus,Machaerirhynchidae,Passeriformes,6,3,3,0,4,15.2,7.1,7.7,3.0,16.9,59.9,11.6,47.3,19.7,56.5,12.0,Dunning,,NO,,,Forest,1.0,1.0,Carnivore,Invertivore,Insessorial,-10.27,-0.39,-5.27,141.8607634,223752.26,Extant
Sylvia_borin,Sylvia borin,Sylviidae,Passeriformes,24,8,12,4,4,15.1,7.2,3.5,3.6,20.1,78.7,23.6,55.2,30.0,57.9,18.2,Dunning,,NO,,,Woodland,1.0,3.0,Omnivore,Omnivore,Insessorial,36.37,70.85,54.65,37.01212237,9648408.47,Extant
Cephalopterus_ornatus,Cephalopterus ornatus,Cotingidae,Passeriformes,15,7,6,2,4,57.2,36.8,19.7,18.9,47.2,259.6,40.4,221.6,15.4,160.2,380.0,Dunning,,NO,,,Forest,1.0,1.0,Omnivore,Omnivore,Insessorial,-17.34,7.83,-5.22,-65.00798525,5506150.67,Extant
Oriolus_oriolus,Oriolus oriolus,Oriolidae,Passeriformes,45,16,29,0,8,29.6,18.8,9.0,8.6,23.0,147.1,54.9,93.5,36.9,83.7,79.0,Dunning,,NO,,,Woodland,1.0,3.0,Omnivore,Omnivore,Insessorial,20.72,63.67,47.63,47.45258038,13665114.77,Extant
Dasyornis_broadbenti,Dasyornis broadbenti,Dasyornithidae,Passeriformes,11,4,6,1,2,21.6,10.4,4.6,5.6,33.5,90.8,5.0,86.5,5.5,120.9,67.9,Dunning,,NO,,,Shrubland,2.0,1.0,Omnivore,Invertivore,Generalist,-38.86,-35.31,-37.67,141.4969873,26759.89,Extant
Notiomystis_cincta,Notiomystis cincta,Meliphagidae,Passeriformes,5,2,3,0,4,20.1,9.0,3.5,3.9,27.6,104.3,25.8,76.4,25.2,78.0,93.37,Dunning,,NO,,,Forest,1.0,1.0,Omnivore,Omnivore,Insessorial,-41.32,-36.17,-39.19,175.0013036,100.83,Extant
Coracina_coerulescens,Coracina coerulescens,Campephagidae,Passeriformes,10,2,8,0,4,27.6,16.5,8.8,8.2,24.2,129.9,27.4,102.5,21.1,100.8,62.84,Dunning,,NO,,,Forest,1.0,1.0,Carnivore,Invertivore,Insessorial,12.54,18.65,15.81,121.5119556,84363.69,Extant
Uria_aalge,Uria aalge,Alcidae,Charadriiformes,6,4,2,0,4,56.8,37.3,8.1,13.3,35.9,196.3,111.2,82.2,57.5,49.8,991.93,Dunning,,NO,,,Marine,3.0,3.0,Carnivore,Aquatic predator,Aquatic,34.56,78.22,58.79,-17.82477091,1547284.08,Extant
Trogon_melanurus,Trogon melanurus,Trogonidae,Trogoniformes,12,5,7,0,8,24.8,15.5,10.2,13.1,14.0,153.5,54.1,100.4,35.0,150.1,114.0,Dunning,,NO,,,Forest,1.0,1.0,Herbivore,Frugivore,Insessorial,-16.43,12.46,-3.11,-63.4709018,6755571.08,Extant
Ibidorhyncha_struthersii,Ibidorhyncha struthersii,Ibidorhynchidae,Charadriiformes,8,4,4,0,4,79.3,63.8,5.3,6.4,46.4,231.2,100.8,131.2,43.5,112.4,294.0,Dunning,,NO,,,Riverine,3.0,2.0,Carnivore,Aquatic predator,Terrestrial,26.52,45.83,35.52,92.4370137,4986455.37,Extant
Pedionomus_torquatus,Pedionomus torquatus,Pedionomidae,Charadriiformes,5,3,2,0,3,16.2,7.5,3.4,3.9,24.4,89.0,26.1,59.7,30.6,26.8,62.52,Dunning,,NO,,,Grassland,3.0,1.0,Omnivore,Omnivore,Terrestrial,-36.43,-23.21,-29.41,142.7701565,32628.67,Extant
Scytalopus_superciliaris,Scytalopus superciliaris,Rhinocryptidae,Passeriformes,5,2,3,0,4,12.9,5.6,2.9,3.6,19.6,51.6,8.1,45.1,15.5,36.9,17.8,Dunning,,NO,,,Forest,3.0,1.0,Carnivore,Invertivore,Terrestrial,-29.7,-22.23,-26.09,-65.71030229,53108.46,Extant
Indicator_maculatus,Indicator maculatus,Indicatoridae,Piciformes,9,2,3,4,4,13.4,7.6,4.5,5.8,16.8,97.6,19.2,78.8,19.6,61.6,46.8,Dunning,,NO,,,Forest,1.0,1.0,Carnivore,Invertivore,Insessorial,-5.93,13.85,4.06,11.37124865,4072953.89,Extant
Polioptila_caerulea,Polioptila caerulea,Polioptilidae,Passeriformes,8,3,3,2,7,11.3,7.4,2.8,2.3,15.9,50.8,9.6,40.8,19.1,49.1,5.8,Dunning,,NO,,,Woodland,2.0,3.0,Carnivore,Invertivore,Insessorial,14.44,46.6,33.81,-96.33514325,6582606.18,Extant
Pelecanoides_urinatrix,Pelecanoides urinatrix,Pelecanoididae,Procellariiformes,7,4,3,0,4,28.1,13.1,6.4,7.2,23.9,121.7,56.8,62.2,47.7,39.0,152.06,Dunning,,NO,,,Marine,3.0,2.0,Carnivore,Aquatic predator,Aquatic,-63.56,-24.03,-46.17,65.55346377,21746036.6,Extant
Buphagus_erythrorhynchus,Buphagus erythrorhynchus,Sturnidae,Passeriformes,6,3,3,0,4,19.7,12.2,6.3,7.0,20.4,118.6,35.8,85.8,29.4,98.3,50.74,Dunning,,NO,,,Woodland,3.0,1.0,Carnivore,Invertivore,Insessorial,-33.57,17.33,-2.49,36.34648666,2881050.23,Extant
Calcarius_ornatus,Calcarius ornatus,Emberizidae,Passeriformes,6,2,4,0,5,11.6,7.5,4.4,5.2,20.0,78.6,21.0,57.9,26.7,56.5,20.3,Dunning,,NO,,,Grassland,3.0,3.0,Omnivore,Granivore,Terrestrial,39.91,51.9,47.96,-105.4957598,799140.65,Extant
Stachyris_dennistouni,Stachyris dennistouni,Timaliidae,Passeriformes,4,2,2,0,4,16.3,9.9,3.3,4.3,18.0,66.1,10.4,55.6,15.8,58.7,15.7,Dunning,,NO,,,Forest,1.0,1.0,Carnivore,Invertivore,Insessorial,15.1,18.59,17.21,121.6827882,15801.31,Extant
Baryphthengus_martii,Baryphthengus martii,Momotidae,Coraciiformes,22,10,5,7,7,49.3,33.5,11.7,14.0,32.6,150.7,24.3,126.6,16.1,250.8,165.02,Dunning,,NO,,,Forest,1.0,1.0,Carnivore,Omnivore,Insessorial,-18.13,15.3,-6.17,-68.87973623,3234290.46,Extant
Probosciger_aterrimus,Probosciger aterrimus,Psittacidae,Psittaciformes,8,2,6,0,7,90.9,80.5,27.6,84.4,29.5,344.2,103.1,241.2,29.9,229.2,841.0,Dunning,,NO,,,Forest,2.0,1.0,Herbivore,Omnivore,Insessorial,-14.61,0.04,-5.71,140.9523634,716105.09,Extant
Hirundo_rustica,Hirundo rustica,Hirundinidae,Passeriformes,68,23,24,21,10,12.4,6.0,4.5,2.7,11.7,115.8,62.3,56.0,52.6,71.4,17.91,Dunning,,NO,,,Human Modified,3.0,3.0,Carnivore,Invertivore,Aerial,-37.53,71.13,47.56,34.57046816,51701054.06,Extant
Ifrita_kowaldi,Ifrita kowaldi,Orthonychidae,Passeriformes,5,2,3,0,4,16.3,10.0,4.1,4.7,26.8,79.8,9.8,70.4,12.2,54.2,32.1,Dunning,,NO,,,Forest,1.0,1.0,Carnivore,Invertivore,Insessorial,-10.1,-3.33,-5.87,143.2621308,91932.48,Extant
Irena_cyanogastra,Irena cyanogastra,Irenidae,Passeriformes,11,4,5,2,10,28.7,19.6,8.7,11.3,21.1,132.5,28.4,104.5,21.4,104.9,80.29,Dunning,,NO,,,Forest,1.0,1.0,Herbivore,Frugivore,Insessorial,5.56,18.65,11.97,123.2193228,229101.27,Extant
Gallicolumba_beccarii,Gallicolumba beccarii,Columbidae,Columbiformes,8,4,4,0,8,16.4,8.7,2.4,3.2,26.8,104.2,30.5,73.7,29.3,56.0,78.73,Dunning,,NO,,,Forest,1.0,1.0,Herbivore,Omnivore,Terrestrial,-11.85,-0.49,-5.52,144.9813234,239191.41,Extant
Cochlearius_cochlearius,Cochlearius cochlearius,Ardeidae,Pelecaniformes,5,2,3,0,4,86.4,65.9,43.3,28.9,78.3,264.6,77.5,197.0,28.2,117.0,643.21,Dunning,,NO,,,Wetland,2.0,1.0,Carnivore,Aquatic predator,Terrestrial,-26.98,24.4,-4.95,-62.07760887,11698377.4,Extant
Tyrannus_savana,Tyrannus savana,Tyrannidae,Passeriformes,11,5,5,1,4,20.1,11.5,6.5,5.4,17.9,105.6,34.2,71.9,32.0,215.0,31.9,Dunning,,NO,,,Grassland,3.0,3.0,Carnivore,Invertivore,Insessorial,-43.34,18.89,-16.29,-58.79899625,8167916.46,Extant
Rynchops_niger,Rynchops niger,Laridae,Charadriiformes,6,3,3,0,4,83.7,69.4,7.4,25.1,32.3,365.7,246.5,119.2,67.4,130.5,297.73,Dunning,,NO,,,Riverine,3.0,2.0,Carnivore,Aquatic predator,Aerial,-39.39,42.32,-10.31,-57.9481633,13769340.5,Extant
Mohoua_ochrocephala,Mohoua ochrocephala,Acanthizidae,Passeriformes,4,2,2,0,4,14.1,8.1,3.6,5.1,30.9,80.5,15.5,65.0,19.3,73.8,27.69,Dunning,,NO,,,Forest,1.0,1.0,Omnivore,Invertivore,Insessorial,-46.5,-41.01,-45.19,167.8410018,16919.77,Extant
Bombycilla_garrulus,Bombycilla garrulus,Bombycillidae,Passeriformes,13,6,7,0,4,15.5,7.6,5.1,6.0,20.7,116.2,43.9,72.3,37.8,65.8,54.41,Dunning,,NO,,,Forest,1.0,3.0,Herbivore,Omnivore,Insessorial,47.49,70.45,61.26,25.87916459,12792145.0,Extant
Peucedramus_taeniatus,Peucedramus taeniatus,Peucedramidae,Passeriformes,6,3,3,0,4,14.3,8.2,3.1,2.9,18.6,71.0,19.3,50.7,27.6,52.8,11.0,Dunning,,NO,,,Forest,1.0,2.0,Carnivore,Invertivore,Insessorial,12.67,34.4,23.77,-102.3614297,692877.18,Extant
Centropus_bengalensis,Centropus bengalensis,Cuculidae,Cuculiformes,14,1,2,11,4,28.2,15.7,6.6,11.0,39.3,154.6,29.6,129.6,18.6,185.2,148.91,Dunning,,NO,,,Grassland,2.0,1.0,Carnivore,Invertivore,Terrestrial,-10.94,33.04,14.75,105.7872081,6030216.39,Extant
Cnemophilus_loriae,Cnemophilus loriae,Cnemophilidae,Passeriformes,4,1,3,0,4,24.4,11.7,6.1,5.6,38.4,99.8,4.7,95.1,4.7,76.5,83.97,Dunning,,NO,,,Forest,1.0,1.0,Herbivore,Frugivore,Insessorial,-10.1,-3.06,-5.38,141.818736,138396.01,Extant
Oxylabes_madagascariensis,Oxylabes madagascariensis,Sylviidae,Passeriformes,4,2,2,0,4,16.8,9.6,3.1,4.4,21.6,65.0,5.1,59.9,7.8,66.8,23.3,Dunning,,NO,,,Forest,1.0,1.0,Carnivore,Invertivore,Terrestrial,-25.14,-12.36,-18.58,48.4362608,172738.74,Extant
Grallaria_varia,Grallaria varia,Formicariidae,Passeriformes,33,12,12,9,4,28.5,17.6,8.3,10.4,50.8,119.2,9.8,104.5,8.4,48.9,119.0,Dunning,,NO,,,Forest,1.0,1.0,Carnivore,Invertivore,Terrestrial,-30.06,6.37,-8.82,-54.40133079,3247752.05,Extant
Nyctibius_grandis,Nyctibius grandis,Nyctibiidae,Caprimulgiformes,7,1,5,1,4,45.3,16.4,6.7,7.6,16.8,374.1,164.0,211.2,44.0,250.9,547.0,Dunning,,NO,,,Forest,1.0,1.0,Carnivore,Invertivore,Insessorial,-24.61,17.2,-3.9,-62.2288178,8477906.13,Extant
Vidua_macroura,Vidua macroura,Viduidae,Passeriformes,9,4,5,0,4,10.4,6.3,4.3,6.3,15.7,69.0,13.8,54.5,20.2,47.3,15.74,Dunning,,NO,,,Shrubland,3.0,1.0,Herbivore,Granivore,Terrestrial,-34.84,19.08,-3.03,21.13196244,13164158.38,Extant
Cepphus_grylle,Cepphus grylle,Alcidae,Charadriiformes,4,2,2,0,4,38.1,22.4,5.9,9.5,29.8,154.0,66.5,87.5,43.1,51.0,378.0,Dunning,,NO,,,Marine,3.0,3.0,Carnivore,Aquatic predator,Aquatic,43.21,82.01,68.63,-1.356124123,2115522.94,Extant
Ciconia_maguari,Ciconia maguari,Ciconiidae,Ciconiiformes,4,1,2,1,3,248.5,182.3,26.6,35.4,258.2,576.5,248.2,328.2,43.1,254.5,3994.99,Dunning,,NO,,,Grassland,3.0,2.0,Carnivore,Aquatic predator,Terrestrial,-39.41,10.4,-18.01,-59.63787979,5041992.63,Extant
Centropus_unirufus,Centropus unirufus,Cuculidae,Cuculiformes,4,1,2,1,4,37.3,24.2,9.2,15.1,41.8,167.5,22.4,145.1,13.6,206.3,183.76,Dunning,,NO,,,Forest,1.0,1.0,Carnivore,Invertivore,Terrestrial,12.52,18.65,15.82,121.5685511,80442.96,Extant
Prunella_himalayana,Prunella himalayana,Prunellidae,Passeriformes,4,2,2,0,4,13.4,8.0,4.3,4.3,21.4,90.6,27.4,63.2,30.2,59.8,25.7,Dunning,,NO,,,Grassland,3.0,2.0,Omnivore,Invertivore,Terrestrial,32.72,54.28,45.73,86.97015349,1586851.28,Extant
Psophia_crepitans,Psophia crepitans,Psophiidae,Gruiformes,10,2,4,4,7,39.7,19.3,7.6,12.6,128.9,278.3,20.8,255.8,7.5,118.8,1026.0,Dunning,,NO,,,Forest,1.0,1.0,Herbivore,Frugivore,Terrestrial,-5.05,10.24,1.28,-63.53925729,2764896.44,Extant
Motacilla_alba,Motacilla alba,Motacillidae,Passeriformes,27,11,16,0,10,16.1,9.7,3.4,3.5,23.4,87.0,27.4,59.7,31.4,86.8,23.93,Dunning,,NO,,,Human Modified,3.0,3.0,Carnivore,Invertivore,Terrestrial,22.95,76.0,52.86,81.66910285,39488711.64,Extant
Aramus_guarauna,Aramus guarauna,Aramidae,Gruiformes,8,2,3,3,3,130.4,84.9,8.8,13.4,84.6,241.2,24.4,196.6,11.1,225.8,1080.0,Dunning,,NO,,,Wetland,3.0,1.0,Carnivore,Aquatic predator,Terrestrial,-39.32,31.24,-10.49,-58.48455114,12182050.36,Extant
Odontophorus_gujanensis,Odontophorus gujanensis,Odontophoridae,Galliformes,7,2,5,0,6,19.7,11.2,7.9,11.5,37.2,143.4,18.8,122.8,13.3,71.3,314.06,Dunning,,NO,,,Forest,1.0,1.0,Herbivore,Omnivore,Terrestrial,-20.2,10.72,-4.45,-63.16904516,7536115.55,Extant
Columbina_picui,Columbina picui,Columbidae,Columbiformes,10,4,5,1,3,15.0,8.8,3.2,4.2,13.5,87.9,17.8,70.5,20.1,72.2,47.0,Dunning,,NO,,,Human Modified,3.0,3.0,Herbivore,Granivore,Terrestrial,-43.46,-2.73,-23.34,-58.64470063,5736046.33,Extant
Eurystomus_gularis,Eurystomus gularis,Coraciidae,Coraciiformes,5,2,2,1,4,25.3,15.2,11.3,12.3,17.8,148.6,61.8,84.5,42.4,90.6,96.29,Dunning,,NO,,,Forest,2.0,1.0,Carnivore,Invertivore,Aerial,-9.39,10.19,1.89,13.6944738,2827968.86,Extant
Eudromia_elegans,Eudromia elegans,Tinamidae,Tinamiformes,6,3,2,1,5,29.1,13.8,7.4,7.4,44.0,215.3,74.0,141.8,34.3,85.8,702.9,Dunning,,NO,,,Shrubland,2.0,1.0,Herbivore,Omnivore,Terrestrial,-50.16,-19.72,-37.3,-65.9168242,1493624.4,Extant
Formicarius_rufipectus,Formicarius rufipectus,Formicariidae,Passeriformes,5,0,4,1,4,26.8,13.5,5.7,6.6,36.5,92.0,11.8,80.3,12.7,55.4,74.4,Dunning,,NO,,,Forest,1.0,1.0,Carnivore,Invertivore,Terrestrial,-13.75,10.49,-3.76,-76.29702443,206331.95,Extant
Sitta_europaea,Sitta europaea,Sittidae,Passeriformes,23,10,11,2,7,20.8,13.2,4.4,4.4,19.9,85.3,20.1,65.1,23.6,47.1,20.37,Dunning,,NO,,,Forest,1.0,1.0,Carnivore,Invertivore,Insessorial,21.9,69.01,53.75,86.96531826,22902160.09,Extant
Phainopepla_nitens,Phainopepla nitens,Bombycillidae,Passeriformes,112,47,64,1,4,13.4,8.1,5.0,4.1,20.9,92.6,16.6,81.9,16.9,92.7,22.1,Dunning,,NO,,,Shrubland,2.0,1.0,Omnivore,Frugivore,Insessorial,19.91,40.52,29.77,-109.7741979,1250356.67,Extant
Donacobius_atricapilla,Donacobius atricapilla,Mimidae,Passeriformes,7,3,3,1,4,26.1,14.9,4.6,5.3,31.7,81.1,7.7,72.5,9.6,98.5,36.8,Dunning,,NO,,,Wetland,3.0,1.0,Carnivore,Invertivore,Insessorial,-28.73,12.46,-5.58,-60.43440744,8620634.56,Extant
Brachypteracias_leptosomus,Brachypteracias leptosomus,Brachypteraciidae,Coraciiformes,5,2,2,1,4,41.8,27.0,13.2,14.8,33.7,137.6,27.0,109.5,19.8,127.4,185.0,Dunning,,NO,,,Forest,1.0,1.0,Carnivore,Invertivore,Insessorial,-25.03,-13.12,-17.88,48.72010715,39070.42,Extant
Bucorvus_abyssinicus,Bucorvus abyssinicus,Bucorvidae,Bucerotiformes,4,2,2,0,4,256.5,189.8,31.4,56.3,145.6,556.0,114.1,441.9,20.6,337.8,4000.0,Dunning,,NO,,,Grassland,3.0,1.0,Carnivore,Omnivore,Terrestrial,0.1,16.58,9.51,13.93180803,4482170.58,Extant
Aleadryas_rufinucha,Aleadryas rufinucha,Pachycephalidae,Passeriformes,5,2,3,0,4,20.3,11.2,4.9,7.3,30.2,84.8,12.2,70.8,14.7,70.2,40.5,Dunning,,NO,,,Forest,1.0,1.0,Carnivore,Invertivore,Insessorial,-10.11,-0.49,-5.12,141.6053123,150684.68,Extant
Hemiprocne_comata,Hemiprocne comata,Hemiprocnidae,Apodiformes,8,5,3,0,4,5.7,3.1,2.8,2.0,6.2,128.8,68.8,53.6,56.2,75.0,20.63,Dunning,,NO,,,Forest,1.0,1.0,Carnivore,Invertivore,Insessorial,-5.95,18.65,2.8,110.3610952,1482225.39,Extant
Herpetotheres_cachinnans,Herpetotheres cachinnans,Falconidae,Falconiformes,9,3,6,0,8,33.2,18.3,12.6,20.7,58.9,272.4,51.0,217.8,18.9,219.0,623.58,Dunning,,NO,,,Forest,2.0,1.0,Carnivore,Vertivore,Insessorial,-29.26,28.93,-5.54,-60.89647148,13330796.59,Extant
Thinocorus_orbignyianus,Thinocorus orbignyianus,Thinocoridae,Charadriiformes,5,2,3,0,4,16.4,8.4,5.8,5.9,23.7,138.8,67.6,72.4,48.2,65.6,115.0,Dunning,,NO,,,Grassland,3.0,1.0,Herbivore,Herbivore terrestrial,Terrestrial,-55.79,-6.08,-29.6,-70.03525313,1570843.96,Extant
Grantiella_picta,Grantiella picta,Meliphagidae,Passeriformes,7,1,3,3,4,16.9,8.9,3.4,3.9,17.4,87.0,29.5,55.9,34.6,51.9,21.5,Dunning,,NO,,,Woodland,2.0,3.0,Herbivore,Omnivore,Insessorial,-38.45,-23.36,-33.42,147.0828808,374029.06,Extant
